{ "places": [{

    "lat": "51.13207714749649",
    "lng": "17.06550121307373",
    "name": "Pl. Kromera"

}, {

    "lat": "51.12454271204484",
    "lng": "17.034999132156372",
    "name": "Dworzec Nadodrze"

}, {

    "lat": "51.10723376985792",
    "lng": "17.061327695846558",
    "name": "Politechnika Wrocławska - Gmach Główny "

}, {

    "lat": "51.094790225798505",
    "lng": "16.980035305023193",
    "name": "FAT - Grabiszyńska - Hallera"


}, {

    "lat": "51.099264089082496",
    "lng": "17.000784873962402",
    "name": "Grabiszyńska - Stalowa"

}, {

    "lat": "51.09544381415203",
    "lng": "17.007962465286255",
    "name": "Grochowa - Jemiołowa"

}, {

    "lat": "51.091191955420186",
    "lng": "16.98563575744629",
    "name": "Hallera - Odkrywców"

}, {

    "lat": "51.089264676748826",
    "lng": "17.00162172317505",
    "name": "Centrum Handlowe Borek"

}, {

    "lat": "51.09342911524615",
    "lng": "17.002780437469482",
    "name": "Krucza - Mielecka"

}, {

    "lat": "51.10097536207561",
    "lng": "17.0082950592041",
    "name": "Pereca - Grabiszyńska"

}, {

    "lat": "51.09722260577026",
    "lng": "17.01408863067627",
    "name": "Zaporoska - Gajowicka"

}, {

    "lat": "51.10185118595181",
    "lng": "17.0137882232666",
    "name": "Zaporoska - Grabiszyńska"

}, {

    "lat": "51.09425117690591",
    "lng": "17.01447486877441",
    "name": "Zaporoska - Wielka"

}, {

    "lat": "51.09804123119159",
    "lng": "17.00680375099182",
    "name": "Żelazna - Pereca"

}, {

    "lat": "51.12527668338291",
    "lng": "16.98439121246338",
    "name": "Legnicka - Wejherowska"
}, {

    "lat": "51.108048849946385",
    "lng": "17.06479847431183",
    "name": "Smoluchowskiego - Łukaszewicza"

}, {

    "lat": "51.11094529924635",
    "lng": "17.052347660064697",
    "name": "Uniwersytet Wrocławski - Joliot Curie"

}, {

    "lat": "51.11920928565168",
    "lng": "17.05654263496399",
    "name": "Nowowiejska - Prusa"

}, {

    "lat": "51.110362656007275",
    "lng": "17.055496573448178",
    "name": "Plac Grunwaldzki - Polaka"
}, {

    "lat": "51.11568363359365",
    "lng": "17.060614228248596",
    "name": "Sienkiewicza - Piastowska"

}, {

    "lat": "51.116838676267925",
    "lng": "17.05156981945038",
    "name": "Sienkiewicza - Wyszyńskiego"

}, {

    "lat": "51.11400321382931",
    "lng": "17.103824615478516",
    "name": "Mickiewicza - pętla tramwajowa"

}, {

    "lat": "51.119431524045254",
    "lng": "17.05151081085205",
    "name": "Wyszyńskiego - Prusa"

}, {

    "lat": "51.08992845137241",
    "lng": "17.023476362228394",
    "name": "Komandorska - Kamienna"


}, {

    "lat": "51.08658926519162",
    "lng": "17.01230764389038",
    "name": "Powstańców Śląskich - Hallera"

}, {

    "lat": "51.089756612155334",
    "lng": "17.028229236602783",
    "name": "Ślężna - Kamienna"

}, {

    "lat": "51.09891037318256",
    "lng": "17.051634192466732",
    "name": "Kościuszki - Komuny Paryskiej / Zgodna"
}, {

    "lat": "51.09699352280998",
    "lng": "17.0562744140625",
    "name": "Traugutta - Kościuszki"


}, {

    "lat": "51.10443813804785",
    "lng": "17.048335075378418",
    "name": "Traugutta - Pułaskiego"

}, {

    "lat": "51.09695646516561",
    "lng": "17.03801929950714",
    "name": "Dworzec kolejowy - południe"

}, {

    "lat": "51.10022753009522",
    "lng": "17.04504132270813",
    "name": "Kościuszki - Pułaskiego"

}, {

    "lat": "51.11698010808053",
    "lng": "17.033389806747437",
    "name": "Drobnera - Dubois"

}, {

    "lat": "51.122387866424724",
    "lng": "17.047605514526364",
    "name": "Żeromskiego - Kluczborska"

}, {

    "lat": "51.11743807478881",
    "lng": "17.041382789611816",
    "name": "Plac Bema"

}, {

    "lat": "51.1222834885376",
    "lng": "17.05226182937622",
    "name": "Nowowiejska - Wyszyńskiego"

}, {

    "lat": "51.12288618340934",
    "lng": "17.03056812286377",
    "name": "Plac Staszica"

}, {

    "lat": "51.113844934670325",
    "lng": "17.034462690353394",
    "name": "Plac Uniwersytecki"

}, {

    "lat": "51.12462351680015",
    "lng": "17.045599222183228",
    "name": "Jedności Narodowej - Nowowiejska "

}, {

    "lat": "51.1102515151332",
    "lng": "17.03505277633667",
    "name": "Wita Stwosza - Szewska "

}, {

    "lat": "51.121256532234305",
    "lng": "17.043163776397705",
    "name": "Jedności Narodowej - Oleśnicka"

}, {

    "lat": "51.12811145398997",
    "lng": "17.05474019050598",
    "name": "Jedności Narodowej - Wyszyńskiego"

}, {

    "lat": "51.129948",
    "lng": "16.9659",
    "name": "Bajana - Szybowcowa"

}, {

    "lat": "51.12557296208677",
    "lng": "17.050459384918213",
    "name": "Żeromskiego - Daszyńskiego"

}, {

    "lat": "51.1039396220822",
    "lng": "17.084147930145264",
    "name": "Teki"

}, {

    "lat": "51.11413791906944",
    "lng": "17.0137345790863",
    "name": "Inowrocławska - Urząd Skarbowy"

}, {

    "lat": "51.09965485778756",
    "lng": "17.035846710205078",
    "name": "Dworzec kolejowy - północ"

}, {

    "lat": "51.111477",
    "lng": "17.037904",
    "name": "Plac Nowy Targ "

}, {

    "lat": "51.08346213967434",
    "lng": "17.0352566242218",
    "name": "Armii Krajowej - Borowska"

}, {

    "lat": "51.08016629798973",
    "lng": "17.04749822616577",
    "name": "Krynicka"

}, {

    "lat": "51.09156257672623",
    "lng": "17.040224075317383",
    "name": "Gliniana - Gajowa"

}, {

    "lat": "51.07496256893404",
    "lng": "17.006921768188477",
    "name": "Park Południowy - Powstańców Śląskich"

}, {

    "lat": "51.08013933717133",
    "lng": "16.99460506439209",
    "name": "Racławicka - Rymarska"

}, {

    "lat": "51.07333122768277",
    "lng": "16.995055675506592",
    "name": "Skarbowców - Wietrzna"

}, {

    "lat": "51.111955645831195",
    "lng": "16.960535645484924",
    "name": "Strzegomska - Gubińska"

}, {

    "lat": "51.112171183577146",
    "lng": "17.06024408340454",
    "name": "Rondo Reagana"


}, {

    "lat": "51.094668940345535",
    "lng": "17.026888132095333",
    "name": "Arena - Komandorska"

}, {

    "lat": "51.08774166546555",
    "lng": "17.040288448333737",
    "name": "Kamienna - Gajowa"

}, {

    "lat": "51.099264089082496",
    "lng": "17.02756404876709",
    "name": "Arkady"

}, {

    "lat": "51.094520702137686",
    "lng": "17.020998001098633",
    "name": "Sky Tower"

}, {

    "lat": "51.11287840974499",
    "lng": "17.039633989334103",
    "name": "Hala Targowa "
}, {

    "lat": "51.10971938239645",
    "lng": "17.0302677154541",
    "name": "Rynek "

}, {

    "lat": "51.11143026836378",
    "lng": "17.021266222000122",
    "name": "Jana Pawła II"

}, {

    "lat": "51.11760644376091",
    "lng": "17.007222175598145",
    "name": "Zachodnia - Poznańska"

}, {

    "lat": "51.11346438894182",
    "lng": "17.00635313987732",
    "name": "Plac Strzegomski"

}, {

    "lat": "51.11533677840705",
    "lng": "16.998703479766846",
    "name": "Dworzec Mikołajów"

}, {

    "lat": "51.11010332688538",
    "lng": "17.047863006591797",
    "name": "Muzeum Narodowe"


}, {

    "lat": "51.1019589785129",
    "lng": "17.10146427154541",
    "name": "Olszewskiego - Spółdzielcza"

}, {

    "lat": "51.104384244689136",
    "lng": "17.02254295349121",
    "name": "Plac Legionów"

}, {

    "lat": "51.104121513665575",
    "lng": "17.031673192977905",
    "name": "Świdnicka - Chrobry"

}, {

    "lat": "51.10123811098068",
    "lng": "17.02876567840576",
    "name": "Świdnicka - Piłsudskiego"

}, {

    "lat": "51.11390891992754",
    "lng": "17.067153453826904",
    "name": "Kredka i Ołówek"

}, {

    "lat": "51.12887566759688",
    "lng": "17.04499840736389",
    "name": "Promenady Business Park"

}, {

    "lat": "51.048031338767885",
    "lng": "16.9643497467041",
    "name": "Aleja Bielany"

}, {

    "lat": "51.136022",
    "lng": "17.036164",
    "name": "Żmigrodzka / Kasprowicza"

}, {

    "lat": "51.10669149786965",
    "lng": "17.142872214317322",
    "name": "Strachocińska / Wieśniacza"

}]
}
